{"type":"FeatureCollection","features":[{"type":"Feature","properties":{"marker-color":"#259daa","marker-size":"","marker-symbol":"cafe","Products":"Sandwiches/Wraps,Hot Food,Cookies,Muffins,Donuts,Chips/Snacks,Chocolate Bars,Candy,Salads","Name":"Math Coffee & Donut Shop","Drinks":"Coffee,Juice,Water,Milk,Pop/Soda,Tea,Energy Drinks","Address":"200 University Ave W 3002 Waterloo Waterloo ON N2L3G1 CA"},"geometry":{"type":"Point","coordinates":[-80.54359926,43.4719005]}},{"type":"Feature","properties":{"marker-color":"#259daa","Products":"Cookies,Hot Food","Name":"ES Coffee Shop","Drinks":"Coffee,Tea,Pop/Soda,Milk","Address":"Ring Road Waterloo Ontario N2L 3G1 Canada","marker-symbol":"cafe"},"geometry":{"type":"Point","coordinates":[-80.54276898,43.46829626]}},{"type":"Feature","properties":{"marker-color":"#259daa","Products":"Muffins,Cookies,Sandwiches/Wraps,Hot Food","Name":"William's Fresh Café","Drinks":"Coffee,Tea,Pop/Soda,Milk","Address":"Ring Road Waterloo Ontario N2L 3G1 Canada","marker-symbol":"cafe"},"geometry":{"type":"Point","coordinates":[-80.54345026,43.4681875]}},{"type":"Feature","properties":{"marker-color":"#259daa","Products":"Chips/Snacks,Chocolate Bars","Name":"Common Ground","Drinks":"Coffee","Address":"200 Westmount Rd N Waterloo Waterloo ON N2L 5H8 CA","marker-symbol":"cafe"},"geometry":{"type":"Point","coordinates":[-80.54500326,43.4664105]}},{"type":"Feature","properties":{"Products":" ","Name":"The Funcken Café","Drinks":"Coffee,Pop/Soda,Water,Tea","Address":"290 Westmount Rd N Waterloo Waterloo ON N2L 3G5 CA","marker-color":"#259daa","marker-symbol":"cafe"},"geometry":{"type":"Point","coordinates":[-80.54565726,43.4690695]}},{"type":"Feature","properties":{"Products":"Chips/Snacks,Chocolate Bars,Candy","Name":"Arts Student Union","Drinks":"Coffee,Tea,Pop/Soda,Water","Address":" ","marker-color":"#259daa","marker-symbol":"cafe"},"geometry":{"type":"Point","coordinates":[-80.54193226,43.4688435]}},{"type":"Feature","properties":{"Products":" ","Name":"Watson's Eatery","Drinks":"Tea,Coffee,Juice,Pop/Soda,Milk,Water","Address":"190 Westmount Rd N Waterloo Waterloo ON N2L 3G5 CA","marker-color":"#259daa","marker-symbol":"cafe"},"geometry":{"type":"Point","coordinates":[-80.54630526,43.4677965]}},{"type":"Feature","properties":{"Products":"Cookies,Muffins,Sandwiches/Wraps","Name":"Starbucks","Drinks":"Coffee,Juice,Tea,Milk,Water","Address":"200 Ring rd Waterloo Waterloo ON N2L CA","marker-color":"#259daa","marker-symbol":"cafe"},"geometry":{"type":"Point","coordinates":[-80.54349326,43.4708355]}},{"type":"Feature","properties":{"Products":" ","Name":"Watson's Mug","Drinks":" ","Address":"198 Glen Rd Kitchener Waterloo ON N2M 3G2 CA","marker-color":"#259daa","marker-symbol":"cafe"},"geometry":{"type":"Point","coordinates":[-80.54635168,43.4679187]}},{"type":"Feature","properties":{"Products":"Candy,Chocolate Bars,Hot Food,Chips/Snacks,Donuts,Cookies,Muffins,Sandwiches/Wraps","Name":"Science C & D","Drinks":"Coffee,Tea,Juice,Pop/Soda,Milk,Water,Energy Drinks","Address":"200 University Ave W Waterloo Waterloo ON N2L CA","marker-color":"#259daa","marker-symbol":"cafe"},"geometry":{"type":"Point","coordinates":[-80.54307426,43.4709455]}},{"type":"Feature","properties":{"Products":"Muffins,Cookies,Sandwiches/Wraps,Salads","Name":"PAS Lounge","Drinks":"Coffee,Tea,Juice,Pop/Soda,Water","Address":"Ring Road Waterloo Ontario N2L 3G1 Canada","marker-color":"#259daa","marker-symbol":"cafe"},"geometry":{"type":"Point","coordinates":[-80.54258226,43.4671465]}},{"type":"Feature","properties":{"Products":" ","Name":"St. Jerome's Cafeteria","Drinks":" ","Address":"115 Forfar St W Haldimand-Norfolk ON N3W 1J2 CA","marker-color":"#259daa","marker-symbol":"cafe"},"geometry":{"type":"Point","coordinates":[-80.54550526,43.4692215]}},{"type":"Feature","properties":{"Products":"Muffins,Cookies,Donuts,Sandwiches/Wraps,Chips/Snacks,Hot Food,Salads","Name":"Tim Horton's","Drinks":"Coffee,Tea,Juice,Pop/Soda,Milk,Water","Address":"Ring Road Waterloo Ontario N2L 3G1 Canada","marker-color":"#259daa","marker-symbol":"cafe"},"geometry":{"type":"Point","coordinates":[-80.54018564,43.46913035]}},{"type":"Feature","properties":{"Products":"Sandwiches/Wraps,Chips/Snacks,Hot Food,Salads","Name":"Graduate House","Drinks":"Coffee,Tea,Juice,Pop/Soda,Water","Address":"SCH Concourse Waterloo Ontario N2L 3G1 Canada","marker-color":"#259daa","marker-symbol":"cafe"},"geometry":{"type":"Point","coordinates":[-80.54083426,43.4697795]}},{"type":"Feature","properties":{"Products":"Muffins,Cookies,Donuts,Sandwiches/Wraps,Chips/Snacks,Hot Food,Salads","Name":"Waterloo Engineering Society C&D","Drinks":"Coffee,Tea,Juice,Pop/Soda,Milk,Water,Energy Drinks","Address":"Ring Road Waterloo Ontario N2L 3G1 Canada","marker-color":"#259daa","marker-symbol":"cafe"},"geometry":{"type":"Point","coordinates":[-80.53924027,43.4707095]}},{"type":"Feature","properties":{"Products":"Muffins,Cookies,Sandwiches/Wraps,Chips/Snacks,Hot Food,Salads","Name":"CEIT cafe","Drinks":"Coffee,Tea,Juice,Pop/Soda,Milk,Water","Address":"Waterloo Waterloo Regional Municipality Ontario Canada","marker-color":"#259daa","marker-symbol":"cafe"},"geometry":{"type":"Point","coordinates":[-80.54206126,43.4715775]}},{"type":"Feature","properties":{"Products":"Muffins,Cookies,Donuts,Sandwiches/Wraps,Chips/Snacks,Hot Food,Salads,Chocolate Bars,Candy","Name":"mudie's","Drinks":"Coffee,Tea,Juice,Pop/Soda,Milk,Water,Energy Drinks","Address":"Kitchener Ontario Canada","marker-color":"#259daa","marker-symbol":"cafe"},"geometry":{"type":"Point","coordinates":[-80.54994626,43.4716475]}},{"type":"Feature","properties":{"Products":"Muffins,Cookies,Donuts,Sandwiches/Wraps,Chips/Snacks,Hot Food,Salads","Name":"Tim Hortons","Drinks":"Coffee,Tea,Juice,Pop/Soda,Milk,Water","Address":"SLC Great Hall Waterloo Ontario N2L 3G1 Canada","marker-color":"#259daa","marker-symbol":"cafe"},"geometry":{"type":"Point","coordinates":[-80.54519826,43.4713395]}},{"type":"Feature","properties":{"Products":"Muffins,Cookies,Sandwiches/Wraps,Chips/Snacks,Salads","Name":"Second Cup","Drinks":"Coffee,Tea,Juice,Pop/Soda,Milk,Water","Address":"150 University Ave W Waterloo Waterloo ON N2L 3E4 CA","marker-color":"#259daa","marker-symbol":"cafe"},"geometry":{"type":"Point","coordinates":[-80.53583727,43.4723605]}},{"type":"Feature","properties":{"Products":" ","Name":"Williams Fresh Cafe","Drinks":"Coffee,Tea,Juice,Pop/Soda,Milk,Water","Address":"170 University Avenue West Waterloo Ontario N2L 3E9 Canada","marker-color":"#259daa","marker-symbol":"cafe"},"geometry":{"type":"Point","coordinates":[-80.53865327,43.4722665]}},{"type":"Feature","properties":{"Products":"Muffins,Cookies,Sandwiches/Wraps,Chips/Snacks,Salads,Chocolate Bars,Candy","Name":"Pastry Plus","Drinks":"Coffee,Tea","Address":"200 University Ave W Waterloo Waterloo ON N2L CA","marker-color":"#259daa","marker-symbol":"cafe"},"geometry":{"type":"Point","coordinates":[-80.54344023,43.46960175]}},{"type":"Feature","properties":{"Products":"Muffins,Cookies,Sandwiches/Wraps,Salads,Candy","Name":"Browsers Cafe","Drinks":"Coffee,Tea,Juice,Pop/Soda,Milk,Water","Address":"Ring Road Waterloo Ontario N2L 3G1 Canada","marker-color":"#259daa","marker-symbol":"cafe"},"geometry":{"type":"Point","coordinates":[-80.54227826,43.4668595]}},{"type":"Feature","properties":{"Products":"Muffins,Cookies,Donuts","Name":"Modern Languages Cafeteria","Drinks":"Coffee,Tea","Address":"Ring Road Waterloo Ontario N2L 3G1 Canada","marker-color":"#259daa","marker-symbol":"cafe"},"geometry":{"type":"Point","coordinates":[-80.54266926,43.4687945]}},{"type":"Feature","properties":{"Products":"Muffins,Cookies,Sandwiches/Wraps,Hot Food,Salads,Chocolate Bars,Candy","Name":"Pastry Plud","Drinks":"Coffee,Tea,Pop/Soda,Milk","Address":"Ring Road Waterloo Ontario N2L 3G1 Canada","marker-color":"#259daa","marker-symbol":"cafe","marker-size":""},"geometry":{"type":"Point","coordinates":[-80.54227826,43.4668595]}},{"type":"Feature","properties":{"Products":"Chips/Snacks,Chocolate Bars","Name":"Common Ground","Drinks":"Coffee,Tea,Juice,Pop/Soda,Milk,Water","Address":"140 Westmount Road North æ»‘é“å¢ å®‰å¤§ç•¥çœ N2L 3G6 åŠ æ‹¿å¤§","marker-color":"#259daa","marker-symbol":"cafe"},"geometry":{"type":"Point","coordinates":[-80.54483926,43.4663635]}},{"type":"Feature","properties":{"Products":"Chocolate Bars","Name":"common ground","Drinks":"Coffee,Tea,Juice,Pop/Soda","Address":"200 Westmount Rd N æ»‘é“å¢ æ²ƒç‰¹å¢ ON N2L 5H8 CA","marker-color":"#259daa","marker-symbol":"cafe"},"geometry":{"type":"Point","coordinates":[-80.54480526,43.4668015]}},{"type":"Feature","properties":{"Products":"Salads,Muffins,Hot Food","Name":"Watson's eatery","Drinks":"Coffee,Tea,Pop/Soda,Milk","Address":"190 Westmount Rd N æ»‘é“å¢ æ²ƒç‰¹å¢ ON N2L 3G5 CA","marker-color":"#259daa","marker-symbol":"cafe"},"geometry":{"type":"Point","coordinates":[-80.54606426,43.4675985]}},{"type":"Feature","properties":{"Products":"Muffins,Cookies,Sandwiches/Wraps,Chips/Snacks,Salads,Chocolate Bars,Candy","Name":"Browsers cafe","Drinks":"Coffee,Tea,Juice,Pop/Soda,Milk,Water","Address":"200 University Ave W Waterloo Waterloo ON N2L CA","marker-color":"#259daa","marker-symbol":"cafe"},"geometry":{"type":"Point","coordinates":[-80.54208226,43.4697345]}},{"type":"Feature","properties":{"Products":"Muffins,Cookies,Donuts","Name":"Tim Hortons","Drinks":"Coffee,Tea,Water","Address":"Ring Road Waterloo Ontario N2L 3G1 Canada","marker-color":"#259daa","marker-symbol":"cafe"},"geometry":{"type":"Point","coordinates":[-80.54271226,43.4689095]}},{"type":"Feature","properties":{"Products":" ","Name":"DC Tim Hortons Express","Drinks":" ","Address":" ","marker-color":"#259daa","marker-symbol":"cafe"},"geometry":{"type":"Point","coordinates":[-80.54229668,43.47261009]}},{"type":"Feature","properties":{"Products":" ","Name":"DC Tim Hortons","Drinks":" ","Address":" ","marker-color":"#259daa","marker-symbol":"cafe"},"geometry":{"type":"Point","coordinates":[-80.54267523,43.47294087]}},{"type":"Feature","properties":{"Products":" ","Name":"Brubakers SLC","Drinks":" ","Address":" ","marker-color":"#259daa","marker-symbol":"cafe"},"geometry":{"type":"Point","coordinates":[-80.54540225,43.47202278]}},{"type":"Feature","properties":{"Products":" ","Name":"Starbucks BMH","Drinks":" ","Address":" ","marker-color":"#259daa","marker-symbol":"cafe"},"geometry":{"type":"Point","coordinates":[-80.54556224,43.47350684]}},{"type":"Feature","properties":{"marker-color":"#259daa","marker-size":"","marker-symbol":"cafe","Products":" ","Name":"REVelation REV","Drinks":" ","Address":" "},"geometry":{"type":"Point","coordinates":[-80.55425088,43.47030098]}},{"type":"Feature","properties":{"Products":" ","Name":"Liquid Assets HH","Drinks":" ","Address":" ","marker-color":"#259daa","marker-symbol":"cafe"},"geometry":{"type":"Point","coordinates":[-80.54142631,43.46837487]}}]}